header: 
  seq: 24818
  stamp: 
    secs: 1599125958
    nsecs: 343541050
  frame_id: ''
name: [shoulder_pan_joint, shoulder_lift_joint, elbow_joint, wrist_1_joint, wrist_2_joint,
  wrist_3_joint]
position: [0.030848145484924316, -1.5925782362567347, -2.295258347188131, -1.0232275168048304, 1.6159064769744873, -0.01517802873720342]
velocity: [0.0, 0.0, 0.014393853023648262, 0.0, 0.0, 0.0]
effort: [0.08743061125278473, 1.4728695154190063, 1.499771237373352, 0.32788383960723877, 0.04422619566321373, 0.0732019767165184]
---
header: 
  seq: 24819
  stamp: 
    secs: 1599125958
    nsecs: 351455073
  frame_id: ''
name: [shoulder_pan_joint, shoulder_lift_joint, elbow_joint, wrist_1_joint, wrist_2_joint,
  wrist_3_joint]
position: [0.03080020844936371, -1.5925901571856897, -2.295246426259176, -1.0232036749469202, 1.6158225536346436, -0.015249554310933888]
velocity: [0.0, 0.0, -0.012565859593451023, 0.0, 0.0, 0.0]
effort: [0.06949612498283386, 1.4482096433639526, 1.641005277633667, 0.3355090618133545, 0.04422619566321373, 0.09455255419015884]
---
header: 
  seq: 24820
  stamp: 
    secs: 1599125958
    nsecs: 359605178
  frame_id: ''
name: [shoulder_pan_joint, shoulder_lift_joint, elbow_joint, wrist_1_joint, wrist_2_joint,
  wrist_3_joint]
position: [0.030788224190473557, -1.5925901571856897, -2.2952824274646204, -1.0232275168048304, 1.6158825159072876, -0.015225712453023732]
velocity: [0.0, 0.0, 0.012565859593451023, 0.0, 0.0, 0.0]
effort: [0.07622155547142029, 1.4773530960083008, 1.2531720399856567, 0.33093392848968506, 0.05185139924287796, 0.08692734688520432]
---
header: 
  seq: 24821
  stamp: 
    secs: 1599125958
    nsecs: 367712884
  frame_id: ''
name: [shoulder_pan_joint, shoulder_lift_joint, elbow_joint, wrist_1_joint, wrist_2_joint,
  wrist_3_joint]
position: [0.030788224190473557, -1.5926387945758265, -2.2952824274646204, -1.023167912160055, 1.6158465147018433, -0.015201870595113576]
velocity: [0.0, 0.0, -0.00942119862884283, 0.0, 0.0, 0.0]
effort: [0.07622155547142029, 1.4706276655197144, 1.8876044750213623, 0.315683513879776, 0.042701154947280884, 0.0732019767165184]
---
header: 
  seq: 24822
  stamp: 
    secs: 1599125958
    nsecs: 375646833
  frame_id: ''
name: [shoulder_pan_joint, shoulder_lift_joint, elbow_joint, wrist_1_joint, wrist_2_joint,
  wrist_3_joint]
position: [0.030764255672693253, -1.592602554951803, -2.2952702681170862, -1.0232155958758753, 1.6158945560455322, -0.01517802873720342]
velocity: [0.0, 0.0, 0.00942119862884283, 0.0, 0.0, 0.0]
effort: [0.07622155547142029, 1.452693223953247, 1.0805526971817017, 0.33093392848968506, 0.03812602907419205, 0.08082718402147293]
---
header: 
  seq: 24823
  stamp: 
    secs: 1599125958
    nsecs: 383575961
  frame_id: ''
name: [shoulder_pan_joint, shoulder_lift_joint, elbow_joint, wrist_1_joint, wrist_2_joint,
  wrist_3_joint]
position: [0.030776239931583405, -1.5925901571856897, -2.2952943483935755, -1.0232155958758753, 1.6158106327056885, -0.015201870595113576]
velocity: [0.0, 0.0, -0.005726861767470837, 0.0, 0.0, 0.0]
effort: [0.07622155547142029, 1.452693223953247, 1.9414079189300537, 0.3095833659172058, 0.05947660654783249, 0.08540230989456177]
---
header: 
  seq: 24824
  stamp: 
    secs: 1599125958
    nsecs: 391676315
  frame_id: ''
name: [shoulder_pan_joint, shoulder_lift_joint, elbow_joint, wrist_1_joint, wrist_2_joint,
  wrist_3_joint]
position: [0.0307522714138031, -1.5925901571856897, -2.295246426259176, -1.0232155958758753, 1.615930438041687, -0.015249554310933888]
velocity: [0.0, 0.0, 0.006250971928238869, 0.0, 0.0, 0.0]
effort: [0.07622155547142029, 1.4908039569854736, 1.051409125328064, 0.31415846943855286, 0.04880131781101227, 0.06252668797969818]
---
header: 
  seq: 24825
  stamp: 
    secs: 1599125958
    nsecs: 399638507
  frame_id: ''
name: [shoulder_pan_joint, shoulder_lift_joint, elbow_joint, wrist_1_joint, wrist_2_joint,
  wrist_3_joint]
position: [0.030776239931583405, -1.592614475880758, -2.2953062693225306, -1.0232275168048304, 1.6158106327056885, -0.015201870595113576]
velocity: [0.0, 0.0, -0.005893042776733637, 0.0, 0.0, 0.0]
effort: [0.07397975027561188, 1.46614408493042, 1.9324406385421753, 0.3217836916446686, 0.042701154947280884, 0.07777710258960724]
---
header: 
  seq: 24826
  stamp: 
    secs: 1599125958
    nsecs: 407637144
  frame_id: ''
name: [shoulder_pan_joint, shoulder_lift_joint, elbow_joint, wrist_1_joint, wrist_2_joint,
  wrist_3_joint]
position: [0.0307522714138031, -1.592602554951803, -2.295258347188131, -1.0232394377337855, 1.6158945560455322, -0.015213791524068654]
velocity: [0.0, 0.0, -0.013141102157533169, 0.0, 0.0, 0.0]
effort: [0.06949612498283386, 1.4616605043411255, 1.0962454080581665, 0.326358824968338, 0.03812602907419205, 0.06862685084342957]
---
header: 
  seq: 24827
  stamp: 
    secs: 1599125958
    nsecs: 415757457
  frame_id: ''
name: [shoulder_pan_joint, shoulder_lift_joint, elbow_joint, wrist_1_joint, wrist_2_joint,
  wrist_3_joint]
position: [0.030776239931583405, -1.592614475880758, -2.2952943483935755, -1.0232036749469202, 1.6158225536346436, -0.01523763338197881]
velocity: [0.0, 0.0, 0.014496118761599064, 0.0, 0.0, 0.0]
effort: [0.08294699341058731, 1.452693223953247, 1.8382846117019653, 0.33093392848968506, 0.05185139924287796, 0.08845239132642746]
---
header: 
  seq: 24828
  stamp: 
    secs: 1599125958
    nsecs: 423529859
  frame_id: ''
name: [shoulder_pan_joint, shoulder_lift_joint, elbow_joint, wrist_1_joint, wrist_2_joint,
  wrist_3_joint]
position: [0.03080020844936371, -1.5925901571856897, -2.2952702681170862, -1.0232155958758753, 1.6158825159072876, -0.015213791524068654]
velocity: [0.0, 0.0, -0.01477734837681055, 0.0, 0.0, 0.0]
effort: [0.07173793762922287, 1.4437259435653687, 1.1702251434326172, 0.31720855832099915, 0.053376439958810806, 0.0762520581483841]
---
header: 
  seq: 24829
  stamp: 
    secs: 1599125958
    nsecs: 431648037
  frame_id: ''
name: [shoulder_pan_joint, shoulder_lift_joint, elbow_joint, wrist_1_joint, wrist_2_joint,
  wrist_3_joint]
position: [0.03080020844936371, -1.5926268736468714, -2.295258347188131, -1.0232394377337855, 1.6158345937728882, -0.015189949666158498]
velocity: [0.0, 0.0, 0.014764565043151379, 0.0, 0.0, 0.0]
effort: [0.05604526400566101, 1.463902235031128, 1.679116129875183, 0.3294088840484619, 0.04422619566321373, 0.10065271705389023]
---
header: 
  seq: 24830
  stamp: 
    secs: 1599125958
    nsecs: 439595471
  frame_id: ''
name: [shoulder_pan_joint, shoulder_lift_joint, elbow_joint, wrist_1_joint, wrist_2_joint,
  wrist_3_joint]
position: [0.030788224190473557, -1.5926387945758265, -2.2952702681170862, -1.0232275168048304, 1.615858554840088, -0.015213791524068654]
velocity: [0.0, 0.0, -0.014087056741118431, 0.0, 0.0, 0.0]
effort: [0.0784633681178093, 1.463902235031128, 1.4706276655197144, 0.33093392848968506, 0.05490148067474365, 0.07472702115774155]
---
header: 
  seq: 24831
  stamp: 
    secs: 1599125958
    nsecs: 447661406
  frame_id: ''
name: [shoulder_pan_joint, shoulder_lift_joint, elbow_joint, wrist_1_joint, wrist_2_joint,
  wrist_3_joint]
position: [0.030788224190473557, -1.5925782362567347, -2.295222345982687, -1.0232518354998987, 1.6158825159072876, -0.015165630971090138]
velocity: [0.0, 0.0, 0.013652428984642029, 0.0, 0.0, 0.0]
effort: [0.07173793762922287, 1.452693223953247, 1.499771237373352, 0.3385591506958008, 0.06710181385278702, 0.08082718402147293]
---
header: 
  seq: 24832
  stamp: 
    secs: 1599125958
    nsecs: 455561925
  frame_id: ''
name: [shoulder_pan_joint, shoulder_lift_joint, elbow_joint, wrist_1_joint, wrist_2_joint,
  wrist_3_joint]
position: [0.03080020844936371, -1.592602554951803, -2.29533034959902, -1.0232036749469202, 1.6158225536346436, -0.015201870595113576]
velocity: [0.0, 0.0, -0.012565859593451023, 0.0, 0.0, 0.0]
effort: [0.06501250714063644, 1.4818367958068848, 1.6858415603637695, 0.32788383960723877, 0.05185139924287796, 0.10065271705389023]
---
header: 
  seq: 24833
  stamp: 
    secs: 1599125958
    nsecs: 463575215
  frame_id: ''
name: [shoulder_pan_joint, shoulder_lift_joint, elbow_joint, wrist_1_joint, wrist_2_joint,
  wrist_3_joint]
position: [0.030788224190473557, -1.5926507155047815, -2.295246426259176, -1.0232275168048304, 1.615858554840088, -0.015225712453023732]
velocity: [0.0, 0.0, 0.010763431899249554, 0.0, 0.0, 0.0]
effort: [0.08294699341058731, 1.4594186544418335, 1.2419630289077759, 0.3095833659172058, 0.04117611050605774, 0.06710181385278702]
---
header: 
  seq: 24834
  stamp: 
    secs: 1599125958
    nsecs: 471589596
  frame_id: ''
name: [shoulder_pan_joint, shoulder_lift_joint, elbow_joint, wrist_1_joint, wrist_2_joint,
  wrist_3_joint]
position: [0.030788224190473557, -1.5925901571856897, -2.2953062693225306, -1.0232155958758753, 1.6158465147018433, -0.015249554310933888]
velocity: [0.0, 0.0, -0.00942119862884283, 0.0, 0.0, 0.0]
effort: [0.06277069449424744, 1.46614408493042, 1.8943299055099487, 0.3324589729309082, 0.042701154947280884, 0.07930213958024979]
---
header: 
  seq: 24835
  stamp: 
    secs: 1599125958
    nsecs: 479588137
  frame_id: ''
name: [shoulder_pan_joint, shoulder_lift_joint, elbow_joint, wrist_1_joint, wrist_2_joint,
  wrist_3_joint]
position: [0.0307522714138031, -1.5926387945758265, -2.295234266911642, -1.0232036749469202, 1.6158945560455322, -0.01523763338197881]
velocity: [0.0, 0.0, 0.006059224251657724, 0.0, 0.0, 0.0]
effort: [0.0807051807641983, 1.4571768045425415, 1.0469255447387695, 0.32483378052711487, 0.05185139924287796, 0.07167693227529526]
---
header: 
  seq: 24836
  stamp: 
    secs: 1599125958
    nsecs: 487586372
  frame_id: ''
name: [shoulder_pan_joint, shoulder_lift_joint, elbow_joint, wrist_1_joint, wrist_2_joint,
  wrist_3_joint]
position: [0.03080020844936371, -1.5925901571856897, -2.2952702681170862, -1.0232036749469202, 1.6158106327056885, -0.01523763338197881]
velocity: [0.0, 0.0, -0.005829127039760351, 0.0, 0.0, 0.0]
effort: [0.0807051807641983, 1.452693223953247, 1.9234734773635864, 0.31415846943855286, 0.0366009883582592, 0.06710181385278702]
---
header: 
  seq: 24837
  stamp: 
    secs: 1599125958
    nsecs: 495588141
  frame_id: ''
name: [shoulder_pan_joint, shoulder_lift_joint, elbow_joint, wrist_1_joint, wrist_2_joint,
  wrist_3_joint]
position: [0.03074028715491295, -1.5926268736468714, -2.295258347188131, -1.0231917540179651, 1.6158825159072876, -0.015225712453023732]
velocity: [0.0, 0.0, 0.006097573786973953, 0.0, 0.0, 0.0]
effort: [0.09191422909498215, 1.468385934829712, 1.0603764057159424, 0.3355090618133545, 0.03355090692639351, 0.0762520581483841]
---
header: 
  seq: 24838
  stamp: 
    secs: 1599125958
    nsecs: 503503142
  frame_id: ''
name: [shoulder_pan_joint, shoulder_lift_joint, elbow_joint, wrist_1_joint, wrist_2_joint,
  wrist_3_joint]
position: [0.03080020844936371, -1.5925782362567347, -2.295246426259176, -1.0231793562518519, 1.6157866716384888, -0.01517802873720342]
velocity: [0.0, 0.0, -0.005560680292546749, 0.0, 0.0, 0.0]
effort: [0.07173793762922287, 1.4773530960083008, 1.914506196975708, 0.3217836916446686, 0.06252668797969818, 0.07777710258960724]
---
header: 
  seq: 24839
  stamp: 
    secs: 1599125958
    nsecs: 511639701
  frame_id: ''
name: [shoulder_pan_joint, shoulder_lift_joint, elbow_joint, wrist_1_joint, wrist_2_joint,
  wrist_3_joint]
position: [0.0307522714138031, -1.592602554951803, -2.295258347188131, -1.0232394377337855, 1.6158225536346436, -0.015201870595113576]
velocity: [0.0, 0.0, -0.014240454882383347, 0.0, 0.0, 0.0]
effort: [0.0807051807641983, 1.4863203763961792, 1.0962454080581665, 0.3324589729309082, 0.061001647263765335, 0.07167693227529526]
---
header: 
  seq: 24840
  stamp: 
    secs: 1599125958
    nsecs: 519695714
  frame_id: ''
name: [shoulder_pan_joint, shoulder_lift_joint, elbow_joint, wrist_1_joint, wrist_2_joint,
  wrist_3_joint]
position: [0.030788224190473557, -1.5926507155047815, -2.295246426259176, -1.0232155958758753, 1.6158705949783325, -0.01523763338197881]
velocity: [0.0, 0.0, 0.015991749241948128, 0.0, 0.0, 0.0]
effort: [0.06725431978702545, 1.4706276655197144, 1.8517354726791382, 0.326358824968338, 0.06557676941156387, 0.08692734688520432]
---
header: 
  seq: 24841
  stamp: 
    secs: 1599125958
    nsecs: 527591698
  frame_id: ''
name: [shoulder_pan_joint, shoulder_lift_joint, elbow_joint, wrist_1_joint, wrist_2_joint,
  wrist_3_joint]
position: [0.030824176967144012, -1.5926268736468714, -2.2952702681170862, -1.0231555143939417, 1.6158945560455322, -0.015225712453023732]
velocity: [0.0, 0.0, -0.015608254820108414, 0.0, 0.0, 0.0]
effort: [0.07173793762922287, 1.450451374053955, 1.1724668741226196, 0.3233087360858917, 0.053376439958810806, 0.0732019767165184]
---
header: 
  seq: 24842
  stamp: 
    secs: 1599125958
    nsecs: 535593681
  frame_id: ''
name: [shoulder_pan_joint, shoulder_lift_joint, elbow_joint, wrist_1_joint, wrist_2_joint,
  wrist_3_joint]
position: [0.0307522714138031, -1.5926268736468714, -2.295246426259176, -1.0231555143939417, 1.6158225536346436, -0.015213791524068654]
velocity: [0.0, 0.0, 0.015518772415816784, 0.0, 0.0, 0.0]
effort: [0.06501250714063644, 1.463902235031128, 1.6835997104644775, 0.33093392848968506, 0.03355090692639351, 0.08387726545333862]
---
header: 
  seq: 24843
  stamp: 
    secs: 1599125958
    nsecs: 543738095
  frame_id: ''
name: [shoulder_pan_joint, shoulder_lift_joint, elbow_joint, wrist_1_joint, wrist_2_joint,
  wrist_3_joint]
position: [0.030824176967144012, -1.5926507155047815, -2.295246426259176, -1.0232518354998987, 1.615858554840088, -0.015189949666158498]
velocity: [0.0, 0.0, -0.014432203024625778, 0.0, 0.0, 0.0]
effort: [0.07622155547142029, 1.454935073852539, 1.4414842128753662, 0.3492344319820404, 0.053376439958810806, 0.08082718402147293]
---
header: 
  seq: 24844
  stamp: 
    secs: 1599125958
    nsecs: 551674036
  frame_id: ''
name: [shoulder_pan_joint, shoulder_lift_joint, elbow_joint, wrist_1_joint, wrist_2_joint,
  wrist_3_joint]
position: [0.030776239931583405, -1.5925663153277796, -2.2952824274646204, -1.0232036749469202, 1.6158345937728882, -0.015189949666158498]
velocity: [0.0, 0.0, 0.013729128055274487, 0.0, 0.0, 0.0]
effort: [0.08743061125278473, 1.4795949459075928, 1.504254937171936, 0.3431342542171478, 0.07472702115774155, 0.07472702115774155]
---
header: 
  seq: 24845
  stamp: 
    secs: 1599125958
    nsecs: 559651068
  frame_id: ''
name: [shoulder_pan_joint, shoulder_lift_joint, elbow_joint, wrist_1_joint, wrist_2_joint,
  wrist_3_joint]
position: [0.03081219270825386, -1.5925424734698694, -2.2952702681170862, -1.023167912160055, 1.6158225536346436, -0.015201870595113576]
velocity: [0.0, 0.0, -0.012565859593451023, 0.0, 0.0, 0.0]
effort: [0.0807051807641983, 1.463902235031128, 1.6522144079208374, 0.33398401737213135, 0.050326358526945114, 0.061001647263765335]
---
header: 
  seq: 24846
  stamp: 
    secs: 1599125958
    nsecs: 567629828
  frame_id: ''
name: [shoulder_pan_joint, shoulder_lift_joint, elbow_joint, wrist_1_joint, wrist_2_joint,
  wrist_3_joint]
position: [0.030788224190473557, -1.5925901571856897, -2.2952702681170862, -1.0232394377337855, 1.615858554840088, -0.015213791524068654]
velocity: [0.0, 0.0, 0.010763431899249554, 0.0, 0.0, 0.0]
effort: [0.08743061125278473, 1.4751113653182983, 1.197126865386963, 0.3187336027622223, 0.05947660654783249, 0.07472702115774155]
---
header: 
  seq: 24847
  stamp: 
    secs: 1599125958
    nsecs: 575486722
  frame_id: ''
name: [shoulder_pan_joint, shoulder_lift_joint, elbow_joint, wrist_1_joint, wrist_2_joint,
  wrist_3_joint]
position: [0.03080020844936371, -1.5925901571856897, -2.2952943483935755, -1.023167912160055, 1.6157985925674438, -0.01517802873720342]
velocity: [0.0, 0.0, -0.00942119862884283, 0.0, 0.0, 0.0]
effort: [0.08294699341058731, 1.450451374053955, 1.8741536140441895, 0.3126334547996521, 0.042701154947280884, 0.08082718402147293]
---
header: 
  seq: 24848
  stamp: 
    secs: 1599125958
    nsecs: 583488355
  frame_id: ''
name: [shoulder_pan_joint, shoulder_lift_joint, elbow_joint, wrist_1_joint, wrist_2_joint,
  wrist_3_joint]
position: [0.0307522714138031, -1.592614475880758, -2.2952824274646204, -1.0231917540179651, 1.6158825159072876, -0.01517802873720342]
velocity: [0.0, 0.0, 0.007196926511824131, 0.0, 0.0, 0.0]
effort: [0.08294699341058731, 1.4706276655197144, 1.0110565423965454, 0.31720855832099915, 0.045751236379146576, 0.0762520581483841]
---
header: 
  seq: 24849
  stamp: 
    secs: 1599125958
    nsecs: 591531979
  frame_id: ''
name: [shoulder_pan_joint, shoulder_lift_joint, elbow_joint, wrist_1_joint, wrist_2_joint,
  wrist_3_joint]
position: [0.030788224190473557, -1.5925901571856897, -2.2952824274646204, -1.0232036749469202, 1.615858554840088, -0.015189949666158498]
velocity: [0.0, 0.0, -0.005381715949624777, 0.0, 0.0, 0.0]
effort: [0.09191422909498215, 1.4795949459075928, 1.8763954639434814, 0.32483378052711487, 0.0564265251159668, 0.08235222101211548]
---
header: 
  seq: 24850
  stamp: 
    secs: 1599125958
    nsecs: 599580497
  frame_id: ''
name: [shoulder_pan_joint, shoulder_lift_joint, elbow_joint, wrist_1_joint, wrist_2_joint,
  wrist_3_joint]
position: [0.03081219270825386, -1.5926268736468714, -2.295246426259176, -1.0232756773578089, 1.6158345937728882, -0.015249554310933888]
velocity: [0.0, 0.0, 0.006404370069503784, 0.0, 0.0, 0.0]
effort: [0.0784633681178093, 1.4795949459075928, 1.0783108472824097, 0.3233087360858917, 0.04880131781101227, 0.07777710258960724]
---
header: 
  seq: 24851
  stamp: 
    secs: 1599125958
    nsecs: 607581169
  frame_id: ''
name: [shoulder_pan_joint, shoulder_lift_joint, elbow_joint, wrist_1_joint, wrist_2_joint,
  wrist_3_joint]
position: [0.030848145484924316, -1.592614475880758, -2.2953062693225306, -1.0232394377337855, 1.6158106327056885, -0.015141789113179982]
velocity: [0.0, 0.0, -0.005624596495181322, 0.0, 0.0, 0.0]
effort: [0.0784633681178093, 1.463902235031128, 1.8920880556106567, 0.3233087360858917, 0.04880131781101227, 0.06405173242092133]
---
header: 
  seq: 24852
  stamp: 
    secs: 1599125958
    nsecs: 615578938
  frame_id: ''
name: [shoulder_pan_joint, shoulder_lift_joint, elbow_joint, wrist_1_joint, wrist_2_joint,
  wrist_3_joint]
position: [0.030788224190473557, -1.592614475880758, -2.295258347188131, -1.0232275168048304, 1.6158705949783325, -0.015213791524068654]
velocity: [0.0, 0.0, -0.01386974286288023, 0.0, 0.0, 0.0]
effort: [0.08294699341058731, 1.4728695154190063, 1.0715854167938232, 0.3187336027622223, 0.03965106979012489, 0.07015189528465271]
---
header: 
  seq: 24853
  stamp: 
    secs: 1599125958
    nsecs: 623622395
  frame_id: ''
name: [shoulder_pan_joint, shoulder_lift_joint, elbow_joint, wrist_1_joint, wrist_2_joint,
  wrist_3_joint]
position: [0.030764255672693253, -1.5925901571856897, -2.2952702681170862, -1.0232155958758753, 1.615858554840088, -0.01517802873720342]
velocity: [0.0, 0.0, 0.01525032613426447, 0.0, 0.0, 0.0]
effort: [0.06949612498283386, 1.4773530960083008, 1.8405264616012573, 0.33398401737213135, 0.07167693227529526, 0.07777710258960724]
---
header: 
  seq: 24854
  stamp: 
    secs: 1599125958
    nsecs: 631625478
  frame_id: ''
name: [shoulder_pan_joint, shoulder_lift_joint, elbow_joint, wrist_1_joint, wrist_2_joint,
  wrist_3_joint]
position: [0.03080020844936371, -1.5925901571856897, -2.295258347188131, -1.0232036749469202, 1.6158225536346436, -0.015225712453023732]
velocity: [0.0, 0.0, -0.014317153953015804, 0.0, 0.0, 0.0]
effort: [0.06725431978702545, 1.4280333518981934, 1.2912828922271729, 0.3294088840484619, 0.045751236379146576, 0.0732019767165184]
---
header: 
  seq: 24855
  stamp: 
    secs: 1599125958
    nsecs: 639601847
  frame_id: ''
name: [shoulder_pan_joint, shoulder_lift_joint, elbow_joint, wrist_1_joint, wrist_2_joint,
  wrist_3_joint]
position: [0.030788224190473557, -1.592614475880758, -2.295246426259176, -1.0232036749469202, 1.6158705949783325, -0.015213791524068654]
velocity: [0.0, 0.0, 0.013716344721615314, 0.0, 0.0, 0.0]
effort: [0.05604526400566101, 1.4728695154190063, 1.598410964012146, 0.3324589729309082, 0.045751236379146576, 0.07472702115774155]
---
header: 
  seq: 24856
  stamp: 
    secs: 1599125958
    nsecs: 647536187
  frame_id: ''
name: [shoulder_pan_joint, shoulder_lift_joint, elbow_joint, wrist_1_joint, wrist_2_joint,
  wrist_3_joint]
position: [0.03080020844936371, -1.5925901571856897, -2.295258347188131, -1.0232155958758753, 1.6157985925674438, -0.015225712453023732]
velocity: [0.0, 0.0, -0.013562947511672974, 0.0, 0.0, 0.0]
effort: [0.05828707292675972, 1.4751113653182983, 1.454935073852539, 0.32025864720344543, 0.04727627709507942, 0.07015189528465271]
---
header: 
  seq: 24857
  stamp: 
    secs: 1599125958
    nsecs: 655545146
  frame_id: ''
name: [shoulder_pan_joint, shoulder_lift_joint, elbow_joint, wrist_1_joint, wrist_2_joint,
  wrist_3_joint]
position: [0.030776239931583405, -1.5925663153277796, -2.2952824274646204, -1.0232036749469202, 1.6158465147018433, -0.015201870595113576]
velocity: [0.0, 0.0, 0.014035924337804317, 0.0, 0.0, 0.0]
effort: [0.09191422909498215, 1.4482096433639526, 1.3854389190673828, 0.32483378052711487, 0.05947660654783249, 0.08387726545333862]
---
header: 
  seq: 24858
  stamp: 
    secs: 1599125958
    nsecs: 663608399
  frame_id: ''
name: [shoulder_pan_joint, shoulder_lift_joint, elbow_joint, wrist_1_joint, wrist_2_joint,
  wrist_3_joint]
position: [0.030764255672693253, -1.592602554951803, -2.2953181902514856, -1.0231793562518519, 1.6158225536346436, -0.01517802873720342]
velocity: [0.0, 0.0, -0.010763431899249554, 0.0, 0.0, 0.0]
effort: [0.06277069449424744, 1.450451374053955, 1.726194143295288, 0.3400841951370239, 0.053376439958810806, 0.08692734688520432]
---
header: 
  seq: 24859
  stamp: 
    secs: 1599125958
    nsecs: 671496917
  frame_id: ''
name: [shoulder_pan_joint, shoulder_lift_joint, elbow_joint, wrist_1_joint, wrist_2_joint,
  wrist_3_joint]
position: [0.03080020844936371, -1.5925663153277796, -2.295246426259176, -1.0232275168048304, 1.6158825159072876, -0.015225712453023732]
velocity: [0.0, 0.0, 0.010763431899249554, 0.0, 0.0, 0.0]
effort: [0.06949612498283386, 1.4773530960083008, 1.1904014348983765, 0.32788383960723877, 0.05490148067474365, 0.07472702115774155]
---
header: 
  seq: 24860
  stamp: 
    secs: 1599125958
    nsecs: 679477068
  frame_id: ''
name: [shoulder_pan_joint, shoulder_lift_joint, elbow_joint, wrist_1_joint, wrist_2_joint,
  wrist_3_joint]
position: [0.030788224190473557, -1.5925663153277796, -2.2953062693225306, -1.0231917540179651, 1.6158106327056885, -0.015213791524068654]
velocity: [0.0, 0.0, -0.00637880340218544, 0.0, 0.0, 0.0]
effort: [0.08518879860639572, 1.4885622262954712, 1.8943299055099487, 0.3324589729309082, 0.042701154947280884, 0.0930275097489357]
---
header: 
  seq: 24861
  stamp: 
    secs: 1599125958
    nsecs: 687621589
  frame_id: ''
name: [shoulder_pan_joint, shoulder_lift_joint, elbow_joint, wrist_1_joint, wrist_2_joint,
  wrist_3_joint]
position: [0.030788224190473557, -1.5925782362567347, -2.295258347188131, -1.0232155958758753, 1.6158465147018433, -0.015201870595113576]
velocity: [0.0, 0.0, 0.006033658050000668, 0.0, 0.0, 0.0]
effort: [0.07173793762922287, 1.4594186544418335, 1.0760691165924072, 0.326358824968338, 0.042701154947280884, 0.08540230989456177]
---
header: 
  seq: 24862
  stamp: 
    secs: 1599125958
    nsecs: 695620059
  frame_id: ''
name: [shoulder_pan_joint, shoulder_lift_joint, elbow_joint, wrist_1_joint, wrist_2_joint,
  wrist_3_joint]
position: [0.030776239931583405, -1.5926268736468714, -2.2952943483935755, -1.0232036749469202, 1.6157746315002441, -0.015213791524068654]
velocity: [0.0, 0.0, -0.005675728898495436, 0.0, 0.0, 0.0]
effort: [0.09415604174137115, 1.468385934829712, 1.8898463249206543, 0.33703410625457764, 0.045751236379146576, 0.08387726545333862]
---
header: 
  seq: 24863
  stamp: 
    secs: 1599125958
    nsecs: 703605239
  frame_id: ''
name: [shoulder_pan_joint, shoulder_lift_joint, elbow_joint, wrist_1_joint, wrist_2_joint,
  wrist_3_joint]
position: [0.030788224190473557, -1.5925901571856897, -2.295246426259176, -1.0232036749469202, 1.6158945560455322, -0.015189949666158498]
velocity: [0.0, 0.0, 0.006199839059263468, 0.0, 0.0, 0.0]
effort: [0.06949612498283386, 1.4571768045425415, 1.0581345558166504, 0.3233087360858917, 0.061001647263765335, 0.08997742831707001]
---
header: 
  seq: 24864
  stamp: 
    secs: 1599125958
    nsecs: 711597496
  frame_id: ''
name: [shoulder_pan_joint, shoulder_lift_joint, elbow_joint, wrist_1_joint, wrist_2_joint,
  wrist_3_joint]
position: [0.03080020844936371, -1.5925901571856897, -2.295258347188131, -1.0232036749469202, 1.615858554840088, -0.015189949666158498]
velocity: [0.0, 0.0, -0.00612313998863101, 0.0, 0.0, 0.0]
effort: [0.0784633681178093, 1.4706276655197144, 1.8876044750213623, 0.3355090618133545, 0.05947660654783249, 0.06862685084342957]
---
header: 
  seq: 24865
  stamp: 
    secs: 1599125958
    nsecs: 719603909
  frame_id: ''
name: [shoulder_pan_joint, shoulder_lift_joint, elbow_joint, wrist_1_joint, wrist_2_joint,
  wrist_3_joint]
position: [0.03074028715491295, -1.5925901571856897, -2.295258347188131, -1.0231917540179651, 1.6158705949783325, -0.015165630971090138]
velocity: [0.0, 0.0, -0.014764565043151379, 0.0, 0.0, 0.0]
effort: [0.04707802087068558, 1.463902235031128, 1.102970838546753, 0.3324589729309082, 0.07167693227529526, 0.06862685084342957]
---
header: 
  seq: 24866
  stamp: 
    secs: 1599125958
    nsecs: 727500990
  frame_id: ''
name: [shoulder_pan_joint, shoulder_lift_joint, elbow_joint, wrist_1_joint, wrist_2_joint,
  wrist_3_joint]
position: [0.03080020844936371, -1.592602554951803, -2.295246426259176, -1.0232036749469202, 1.6158106327056885, -0.01517802873720342]
velocity: [0.0, 0.0, 0.0155571224167943, 0.0, 0.0, 0.0]
effort: [0.0807051807641983, 1.4706276655197144, 1.8562191724777222, 0.32788383960723877, 0.045751236379146576, 0.07472702115774155]
---
header: 
  seq: 24867
  stamp: 
    secs: 1599125958
    nsecs: 735654656
  frame_id: ''
name: [shoulder_pan_joint, shoulder_lift_joint, elbow_joint, wrist_1_joint, wrist_2_joint,
  wrist_3_joint]
position: [0.03080020844936371, -1.592602554951803, -2.295246426259176, -1.0232394377337855, 1.615858554840088, -0.015189949666158498]
velocity: [0.0, 0.0, -0.015966184437274933, 0.0, 0.0, 0.0]
effort: [0.07173793762922287, 1.4571768045425415, 1.2867993116378784, 0.32483378052711487, 0.05490148067474365, 0.07472702115774155]
---
header: 
  seq: 24868
  stamp: 
    secs: 1599125958
    nsecs: 743617137
  frame_id: ''
name: [shoulder_pan_joint, shoulder_lift_joint, elbow_joint, wrist_1_joint, wrist_2_joint,
  wrist_3_joint]
position: [0.030776239931583405, -1.5926507155047815, -2.2952824274646204, -1.0232275168048304, 1.6158106327056885, -0.015201870595113576]
velocity: [0.0, 0.0, 0.014905179850757122, 0.0, 0.0, 0.0]
effort: [0.06052888557314873, 1.4728695154190063, 1.5670255422592163, 0.3233087360858917, 0.04117611050605774, 0.0762520581483841]
---
header: 
  seq: 24869
  stamp: 
    secs: 1599125958
    nsecs: 751611751
  frame_id: ''
name: [shoulder_pan_joint, shoulder_lift_joint, elbow_joint, wrist_1_joint, wrist_2_joint,
  wrist_3_joint]
position: [0.030764255672693253, -1.5926268736468714, -2.295258347188131, -1.0231917540179651, 1.6158225536346436, -0.01517802873720342]
velocity: [0.0, 0.0, -0.014291588217020035, 0.0, 0.0, 0.0]
effort: [0.08518879860639572, 1.4706276655197144, 1.4908039569854736, 0.32483378052711487, 0.05490148067474365, 0.0732019767165184]
---
header: 
  seq: 24870
  stamp: 
    secs: 1599125958
    nsecs: 759527678
  frame_id: ''
name: [shoulder_pan_joint, shoulder_lift_joint, elbow_joint, wrist_1_joint, wrist_2_joint,
  wrist_3_joint]
position: [0.030776239931583405, -1.592602554951803, -2.2952824274646204, -1.0232155958758753, 1.6158465147018433, -0.01523763338197881]
velocity: [0.0, 0.0, 0.014368287287652493, 0.0, 0.0, 0.0]
effort: [0.0784633681178093, 1.468385934829712, 1.3944061994552612, 0.32483378052711487, 0.05795156583189964, 0.07472702115774155]
---
header: 
  seq: 24871
  stamp: 
    secs: 1599125958
    nsecs: 767628832
  frame_id: ''
name: [shoulder_pan_joint, shoulder_lift_joint, elbow_joint, wrist_1_joint, wrist_2_joint,
  wrist_3_joint]
position: [0.03081219270825386, -1.5926387945758265, -2.295258347188131, -1.0232036749469202, 1.6158225536346436, -0.015141789113179982]
velocity: [0.0, 0.0, -0.010763431899249554, 0.0, 0.0, 0.0]
effort: [0.07173793762922287, 1.4482096433639526, 1.7979320287704468, 0.34160923957824707, 0.061001647263765335, 0.06710181385278702]
---
header: 
  seq: 24872
  stamp: 
    secs: 1599125958
    nsecs: 775618357
  frame_id: ''
name: [shoulder_pan_joint, shoulder_lift_joint, elbow_joint, wrist_1_joint, wrist_2_joint,
  wrist_3_joint]
position: [0.03081219270825386, -1.5925901571856897, -2.295222345982687, -1.0232155958758753, 1.6159064769744873, -0.015213791524068654]
velocity: [0.0, 0.0, 0.00942119862884283, 0.0, 0.0, 0.0]
effort: [0.06277069449424744, 1.4392423629760742, 1.1209052801132202, 0.3095833659172058, 0.053376439958810806, 0.08235222101211548]
---
header: 
  seq: 24873
  stamp: 
    secs: 1599125958
    nsecs: 783621111
  frame_id: ''
name: [shoulder_pan_joint, shoulder_lift_joint, elbow_joint, wrist_1_joint, wrist_2_joint,
  wrist_3_joint]
position: [0.03080020844936371, -1.592614475880758, -2.2953062693225306, -1.0232155958758753, 1.6158465147018433, -0.015165630971090138]
velocity: [0.0, 0.0, -0.005714078433811665, 0.0, 0.0, 0.0]
effort: [0.05604526400566101, 1.452693223953247, 1.9436497688293457, 0.3355090618133545, 0.0564265251159668, 0.07930213958024979]
---
header: 
  seq: 24874
  stamp: 
    secs: 1599125958
    nsecs: 791457708
  frame_id: ''
name: [shoulder_pan_joint, shoulder_lift_joint, elbow_joint, wrist_1_joint, wrist_2_joint,
  wrist_3_joint]
position: [0.030776239931583405, -1.592614475880758, -2.2952702681170862, -1.0232155958758753, 1.6159064769744873, -0.015201870595113576]
velocity: [0.0, 0.0, 0.005995308514684439, 0.0, 0.0, 0.0]
effort: [0.06949612498283386, 1.46614408493042, 1.0334746837615967, 0.3294088840484619, 0.061001647263765335, 0.07777710258960724]
---
header: 
  seq: 24875
  stamp: 
    secs: 1599125958
    nsecs: 799595960
  frame_id: ''
name: [shoulder_pan_joint, shoulder_lift_joint, elbow_joint, wrist_1_joint, wrist_2_joint,
  wrist_3_joint]
position: [0.030776239931583405, -1.592614475880758, -2.2952943483935755, -1.0232275168048304, 1.6157746315002441, -0.015189949666158498]
velocity: [0.0, 0.0, -0.005944175645709038, 0.0, 0.0, 0.0]
effort: [0.0807051807641983, 1.4594186544418335, 1.9257152080535889, 0.3233087360858917, 0.03355090692639351, 0.08387726545333862]
---
header: 
  seq: 24876
  stamp: 
    secs: 1599125958
    nsecs: 807505094
  frame_id: ''
name: [shoulder_pan_joint, shoulder_lift_joint, elbow_joint, wrist_1_joint, wrist_2_joint,
  wrist_3_joint]
position: [0.030776239931583405, -1.5926268736468714, -2.295342270527975, -1.0231793562518519, 1.6158945560455322, -0.01515371004213506]
velocity: [0.0, 0.0, 0.006174272857606411, 0.0, 0.0, 0.0]
effort: [0.06277069449424744, 1.468385934829712, 1.0715854167938232, 0.32483378052711487, 0.04422619566321373, 0.07167693227529526]
---
header: 
  seq: 24877
  stamp: 
    secs: 1599125958
    nsecs: 815613279
  frame_id: ''
name: [shoulder_pan_joint, shoulder_lift_joint, elbow_joint, wrist_1_joint, wrist_2_joint,
  wrist_3_joint]
position: [0.030776239931583405, -1.5925782362567347, -2.2952943483935755, -1.0231793562518519, 1.6158106327056885, -0.015213791524068654]
velocity: [0.0, 0.0, 0.013166668824851513, 0.0, 0.0, 0.0]
effort: [0.06501250714063644, 1.4594186544418335, 1.8898463249206543, 0.32025864720344543, 0.053376439958810806, 0.06710181385278702]
---
header: 
  seq: 24878
  stamp: 
    secs: 1599125958
    nsecs: 823546479
  frame_id: ''
name: [shoulder_pan_joint, shoulder_lift_joint, elbow_joint, wrist_1_joint, wrist_2_joint,
  wrist_3_joint]
position: [0.030764255672693253, -1.5926268736468714, -2.2952702681170862, -1.0232036749469202, 1.6158705949783325, -0.015213791524068654]
velocity: [0.0, 0.0, -0.014726215973496437, 0.0, 0.0, 0.0]
effort: [0.06052888557314873, 1.4773530960083008, 1.1433234214782715, 0.3324589729309082, 0.053376439958810806, 0.0732019767165184]
---
header: 
  seq: 24879
  stamp: 
    secs: 1599125958
    nsecs: 831527920
  frame_id: ''
name: [shoulder_pan_joint, shoulder_lift_joint, elbow_joint, wrist_1_joint, wrist_2_joint,
  wrist_3_joint]
position: [0.030764255672693253, -1.5926387945758265, -2.2952943483935755, -1.0232155958758753, 1.6157866716384888, -0.015189949666158498]
velocity: [0.0, 0.0, 0.015672171488404274, 0.0, 0.0, 0.0]
effort: [0.07622155547142029, 1.463902235031128, 1.775514006614685, 0.3187336027622223, 0.05185139924287796, 0.09455255419015884]
---
header: 
  seq: 24880
  stamp: 
    secs: 1599125958
    nsecs: 839589065
  frame_id: ''
name: [shoulder_pan_joint, shoulder_lift_joint, elbow_joint, wrist_1_joint, wrist_2_joint,
  wrist_3_joint]
position: [0.03081219270825386, -1.592614475880758, -2.2952702681170862, -1.0232036749469202, 1.6158705949783325, -0.015225712453023732]
velocity: [0.0, 0.0, -0.01404870767146349, 0.0, 0.0, 0.0]
effort: [0.07173793762922287, 1.4571768045425415, 1.3809553384780884, 0.3324589729309082, 0.06252668797969818, 0.08997742831707001]
---
header: 
  seq: 24881
  stamp: 
    secs: 1599125958
    nsecs: 847641020
  frame_id: ''
name: [shoulder_pan_joint, shoulder_lift_joint, elbow_joint, wrist_1_joint, wrist_2_joint,
  wrist_3_joint]
position: [0.030788224190473557, -1.592614475880758, -2.295246426259176, -1.0232275168048304, 1.6158345937728882, -0.01517802873720342]
velocity: [0.0, 0.0, 0.014291588217020035, 0.0, 0.0, 0.0]
effort: [0.05828707292675972, 1.4459677934646606, 1.4751113653182983, 0.32483378052711487, 0.04422619566321373, 0.06710181385278702]
---
header: 
  seq: 24882
  stamp: 
    secs: 1599125958
    nsecs: 855592390
  frame_id: ''
name: [shoulder_pan_joint, shoulder_lift_joint, elbow_joint, wrist_1_joint, wrist_2_joint,
  wrist_3_joint]
position: [0.030824176967144012, -1.5926268736468714, -2.2952824274646204, -1.0231917540179651, 1.6158345937728882, -0.015189949666158498]
velocity: [0.0, 0.0, -0.012565859593451023, 0.0, 0.0, 0.0]
effort: [0.10088147222995758, 1.4482096433639526, 1.6096199750900269, 0.3294088840484619, 0.07167693227529526, 0.07015189528465271]
---
header: 
  seq: 24883
  stamp: 
    secs: 1599125958
    nsecs: 863597889
  frame_id: ''
name: [shoulder_pan_joint, shoulder_lift_joint, elbow_joint, wrist_1_joint, wrist_2_joint,
  wrist_3_joint]
position: [0.03080020844936371, -1.592614475880758, -2.2952702681170862, -1.0232394377337855, 1.6158465147018433, -0.01517802873720342]
velocity: [0.0, 0.0, 0.012565859593451023, 0.0, 0.0, 0.0]
effort: [0.06501250714063644, 1.468385934829712, 1.3181846141815186, 0.315683513879776, 0.053376439958810806, 0.07015189528465271]
---
header: 
  seq: 24884
  stamp: 
    secs: 1599125958
    nsecs: 871607190
  frame_id: ''
name: [shoulder_pan_joint, shoulder_lift_joint, elbow_joint, wrist_1_joint, wrist_2_joint,
  wrist_3_joint]
position: [0.03080020844936371, -1.592614475880758, -2.2952702681170862, -1.023167912160055, 1.6158225536346436, -0.015201870595113576]
velocity: [0.0, 0.0, -0.006864564027637243, 0.0, 0.0, 0.0]
effort: [0.05828707292675972, 1.4594186544418335, 1.8741536140441895, 0.326358824968338, 0.0564265251159668, 0.07472702115774155]
---
header: 
  seq: 24885
  stamp: 
    secs: 1599125958
    nsecs: 879556277
  frame_id: ''
name: [shoulder_pan_joint, shoulder_lift_joint, elbow_joint, wrist_1_joint, wrist_2_joint,
  wrist_3_joint]
position: [0.03080020844936371, -1.5926387945758265, -2.295246426259176, -1.0231793562518519, 1.6158945560455322, -0.01523763338197881]
velocity: [0.0, 0.0, 0.005726861767470837, 0.0, 0.0, 0.0]
effort: [0.06501250714063644, 1.454935073852539, 1.0940035581588745, 0.326358824968338, 0.045751236379146576, 0.08082718402147293]
---
header: 
  seq: 24886
  stamp: 
    secs: 1599125958
    nsecs: 887561528
  frame_id: ''
name: [shoulder_pan_joint, shoulder_lift_joint, elbow_joint, wrist_1_joint, wrist_2_joint,
  wrist_3_joint]
position: [0.030788224190473557, -1.592614475880758, -2.2952943483935755, -1.0232394377337855, 1.6158225536346436, -0.015213791524068654]
velocity: [0.0, 0.0, -0.006455502472817898, 0.0, 0.0, 0.0]
effort: [0.0784633681178093, 1.4482096433639526, 1.8876044750213623, 0.3217836916446686, 0.050326358526945114, 0.07777710258960724]
---
header: 
  seq: 24887
  stamp: 
    secs: 1599125958
    nsecs: 895525577
  frame_id: ''
name: [shoulder_pan_joint, shoulder_lift_joint, elbow_joint, wrist_1_joint, wrist_2_joint,
  wrist_3_joint]
position: [0.03081219270825386, -1.5925901571856897, -2.2952943483935755, -1.0232275168048304, 1.6158945560455322, -0.01517802873720342]
velocity: [0.0, 0.0, 0.005726861767470837, 0.0, 0.0, 0.0]
effort: [0.06725431978702545, 1.46614408493042, 1.0962454080581665, 0.3324589729309082, 0.04117611050605774, 0.08997742831707001]
---
header: 
  seq: 24888
  stamp: 
    secs: 1599125958
    nsecs: 903557663
  frame_id: ''
name: [shoulder_pan_joint, shoulder_lift_joint, elbow_joint, wrist_1_joint, wrist_2_joint,
  wrist_3_joint]
position: [0.03081219270825386, -1.592602554951803, -2.295258347188131, -1.0231917540179651, 1.6158106327056885, -0.015213791524068654]
velocity: [0.0, 0.0, -0.005969741847366095, 0.0, 0.0, 0.0]
effort: [0.053803451359272, 1.468385934829712, 1.914506196975708, 0.3126334547996521, 0.027450740337371826, 0.07015189528465271]
---
header: 
  seq: 24889
  stamp: 
    secs: 1599125958
    nsecs: 911556420
  frame_id: ''
name: [shoulder_pan_joint, shoulder_lift_joint, elbow_joint, wrist_1_joint, wrist_2_joint,
  wrist_3_joint]
position: [0.03080020844936371, -1.592614475880758, -2.2952702681170862, -1.0232275168048304, 1.615918517112732, -0.015225712453023732]
velocity: [0.0, 0.0, 0.0065322015434503555, 0.0, 0.0, 0.0]
effort: [0.07173793762922287, 1.4616605043411255, 1.102970838546753, 0.3324589729309082, 0.05185139924287796, 0.08082718402147293]
---
header: 
  seq: 24890
  stamp: 
    secs: 1599125958
    nsecs: 919543398
  frame_id: ''
name: [shoulder_pan_joint, shoulder_lift_joint, elbow_joint, wrist_1_joint, wrist_2_joint,
  wrist_3_joint]
position: [0.03074028715491295, -1.592614475880758, -2.295246426259176, -1.0232036749469202, 1.6158465147018433, -0.015189949666158498]
velocity: [0.0, 0.0, 0.014969096519052982, 0.0, 0.0, 0.0]
effort: [0.0807051807641983, 1.4414842128753662, 1.8539773225784302, 0.33703410625457764, 0.050326358526945114, 0.08082718402147293]
---
header: 
  seq: 24891
  stamp: 
    secs: 1599125958
    nsecs: 927594969
  frame_id: ''
name: [shoulder_pan_joint, shoulder_lift_joint, elbow_joint, wrist_1_joint, wrist_2_joint,
  wrist_3_joint]
position: [0.030788224190473557, -1.592614475880758, -2.295234266911642, -1.0232394377337855, 1.6158345937728882, -0.015225712453023732]
velocity: [0.0, 0.0, -0.014240454882383347, 0.0, 0.0, 0.0]
effort: [0.05604526400566101, 1.4459677934646606, 1.280073881149292, 0.32788383960723877, 0.04117611050605774, 0.07777710258960724]
---
header: 
  seq: 24892
  stamp: 
    secs: 1599125958
    nsecs: 935545635
  frame_id: ''
name: [shoulder_pan_joint, shoulder_lift_joint, elbow_joint, wrist_1_joint, wrist_2_joint,
  wrist_3_joint]
position: [0.0307522714138031, -1.5926268736468714, -2.2952824274646204, -1.0232632795916956, 1.6158825159072876, -0.015249554310933888]
velocity: [0.0, 0.0, 0.0136652123183012, 0.0, 0.0, 0.0]
effort: [0.07622155547142029, 1.468385934829712, 1.4885622262954712, 0.32788383960723877, 0.050326358526945114, 0.07930213958024979]
---
header: 
  seq: 24893
  stamp: 
    secs: 1599125958
    nsecs: 943597026
  frame_id: ''
name: [shoulder_pan_joint, shoulder_lift_joint, elbow_joint, wrist_1_joint, wrist_2_joint,
  wrist_3_joint]
position: [0.030788224190473557, -1.5926507155047815, -2.295258347188131, -1.0232036749469202, 1.6158345937728882, -0.015189949666158498]
velocity: [0.0, 0.0, -0.013013270683586597, 0.0, 0.0, 0.0]
effort: [0.08294699341058731, 1.4952876567840576, 1.515463948249817, 0.32483378052711487, 0.053376439958810806, 0.0762520581483841]
---
header: 
  seq: 24894
  stamp: 
    secs: 1599125958
    nsecs: 951597182
  frame_id: ''
name: [shoulder_pan_joint, shoulder_lift_joint, elbow_joint, wrist_1_joint, wrist_2_joint,
  wrist_3_joint]
position: [0.0307522714138031, -1.5925901571856897, -2.295258347188131, -1.0232275168048304, 1.6158945560455322, -0.015225712453023732]
velocity: [0.0, 0.0, 0.014496118761599064, 0.0, 0.0, 0.0]
effort: [0.07397975027561188, 1.4706276655197144, 1.374229907989502, 0.3324589729309082, 0.06710181385278702, 0.0732019767165184]
---
header: 
  seq: 24895
  stamp: 
    secs: 1599125958
    nsecs: 959599929
  frame_id: ''
name: [shoulder_pan_joint, shoulder_lift_joint, elbow_joint, wrist_1_joint, wrist_2_joint,
  wrist_3_joint]
position: [0.030776239931583405, -1.5925901571856897, -2.2952824274646204, -1.0232394377337855, 1.615858554840088, -0.01523763338197881]
velocity: [0.0, 0.0, -0.010763431899249554, 0.0, 0.0, 0.0]
effort: [0.07397975027561188, 1.452693223953247, 1.773272156715393, 0.3385591506958008, 0.05490148067474365, 0.08540230989456177]
---
header: 
  seq: 24896
  stamp: 
    secs: 1599125958
    nsecs: 967618375
  frame_id: ''
name: [shoulder_pan_joint, shoulder_lift_joint, elbow_joint, wrist_1_joint, wrist_2_joint,
  wrist_3_joint]
position: [0.030776239931583405, -1.5925901571856897, -2.2952702681170862, -1.0232036749469202, 1.6159064769744873, -0.01523763338197881]
velocity: [0.0, 0.0, 0.0067878649570047855, 0.0, 0.0, 0.0]
effort: [0.06501250714063644, 1.450451374053955, 1.042441964149475, 0.31720855832099915, 0.0564265251159668, 0.07930213958024979]
---
header: 
  seq: 24897
  stamp: 
    secs: 1599125958
    nsecs: 975544546
  frame_id: ''
name: [shoulder_pan_joint, shoulder_lift_joint, elbow_joint, wrist_1_joint, wrist_2_joint,
  wrist_3_joint]
position: [0.030764255672693253, -1.5925901571856897, -2.2952824274646204, -1.0232036749469202, 1.6158225536346436, -0.01523763338197881]
velocity: [0.0, 0.0, -0.0057779946364462376, 0.0, 0.0, 0.0]
effort: [0.07173793762922287, 1.4728695154190063, 1.8876044750213623, 0.3294088840484619, 0.053376439958810806, 0.07472702115774155]
---
header: 
  seq: 24898
  stamp: 
    secs: 1599125958
    nsecs: 983538453
  frame_id: ''
name: [shoulder_pan_joint, shoulder_lift_joint, elbow_joint, wrist_1_joint, wrist_2_joint,
  wrist_3_joint]
position: [0.03081219270825386, -1.5925901571856897, -2.295246426259176, -1.0232275168048304, 1.6158825159072876, -0.01517802873720342]
velocity: [0.0, 0.0, 0.006621683947741985, 0.0, 0.0, 0.0]
effort: [0.08518879860639572, 1.4751113653182983, 1.0805526971817017, 0.32483378052711487, 0.05947660654783249, 0.07930213958024979]
---
header: 
  seq: 24899
  stamp: 
    secs: 1599125958
    nsecs: 991492505
  frame_id: ''
name: [shoulder_pan_joint, shoulder_lift_joint, elbow_joint, wrist_1_joint, wrist_2_joint,
  wrist_3_joint]
position: [0.030824176967144012, -1.5925901571856897, -2.2952824274646204, -1.0232155958758753, 1.6157866716384888, -0.01523763338197881]
velocity: [0.0, 0.0, -0.0060208747163414955, 0.0, 0.0, 0.0]
effort: [0.0807051807641983, 1.4594186544418335, 1.9257152080535889, 0.32483378052711487, 0.06252668797969818, 0.07472702115774155]
---
header: 
  seq: 24900
  stamp: 
    secs: 1599125958
    nsecs: 999622791
  frame_id: ''
name: [shoulder_pan_joint, shoulder_lift_joint, elbow_joint, wrist_1_joint, wrist_2_joint,
  wrist_3_joint]
position: [0.030824176967144012, -1.5925901571856897, -2.2952702681170862, -1.0231917540179651, 1.6159064769744873, -0.015225712453023732]
velocity: [0.0, 0.0, -0.013166668824851513, 0.0, 0.0, 0.0]
effort: [0.06277069449424744, 1.463902235031128, 1.0962454080581665, 0.33093392848968506, 0.050326358526945114, 0.08540230989456177]
---
header: 
  seq: 24901
  stamp: 
    secs: 1599125959
    nsecs:   7623786
  frame_id: ''
name: [shoulder_pan_joint, shoulder_lift_joint, elbow_joint, wrist_1_joint, wrist_2_joint,
  wrist_3_joint]
position: [0.030824176967144012, -1.592614475880758, -2.2953181902514856, -1.0232155958758753, 1.6158225536346436, -0.01515371004213506]
velocity: [0.0, 0.0, 0.013946441933512688, 0.0, 0.0, 0.0]
effort: [0.08518879860639572, 1.4459677934646606, 1.8584609031677246, 0.32483378052711487, 0.06405173242092133, 0.09912768006324768]
---
header: 
  seq: 24902
  stamp: 
    secs: 1599125959
    nsecs:  15563090
  frame_id: ''
name: [shoulder_pan_joint, shoulder_lift_joint, elbow_joint, wrist_1_joint, wrist_2_joint,
  wrist_3_joint]
position: [0.03080020844936371, -1.592602554951803, -2.2952943483935755, -1.0231793562518519, 1.6158825159072876, -0.015201870595113576]
velocity: [0.0, 0.0, -0.015263109467923641, 0.0, 0.0, 0.0]
effort: [0.08518879860639572, 1.454935073852539, 1.1859177350997925, 0.3355090618133545, 0.04117611050605774, 0.07777710258960724]
---
header: 
  seq: 24903
  stamp: 
    secs: 1599125959
    nsecs:  23604284
  frame_id: ''
name: [shoulder_pan_joint, shoulder_lift_joint, elbow_joint, wrist_1_joint, wrist_2_joint,
  wrist_3_joint]
position: [0.030776239931583405, -1.5925543943988245, -2.2952943483935755, -1.0231793562518519, 1.6158825159072876, -0.015213791524068654]
velocity: [0.0, 0.0, 0.014687865972518921, 0.0, 0.0, 0.0]
effort: [0.0807051807641983, 1.4773530960083008, 1.596169114112854, 0.32025864720344543, 0.042701154947280884, 0.07777710258960724]
---
header: 
  seq: 24904
  stamp: 
    secs: 1599125959
    nsecs:  31554612
  frame_id: ''
name: [shoulder_pan_joint, shoulder_lift_joint, elbow_joint, wrist_1_joint, wrist_2_joint,
  wrist_3_joint]
position: [0.030776239931583405, -1.5925424734698694, -2.2953062693225306, -1.0232036749469202, 1.6158705949783325, -0.01523763338197881]
velocity: [0.0, 0.0, -0.013460681773722172, 0.0, 0.0, 0.0]
effort: [0.08518879860639572, 1.4706276655197144, 1.4392423629760742, 0.33093392848968506, 0.04117611050605774, 0.09150247275829315]
---
header: 
  seq: 24905
  stamp: 
    secs: 1599125959
    nsecs:  39591240
  frame_id: ''
name: [shoulder_pan_joint, shoulder_lift_joint, elbow_joint, wrist_1_joint, wrist_2_joint,
  wrist_3_joint]
position: [0.030788224190473557, -1.5925901571856897, -2.2953062693225306, -1.0232036749469202, 1.615858554840088, -0.015201870595113576]
velocity: [0.0, 0.0, 0.01404870767146349, 0.0, 0.0, 0.0]
effort: [0.09191422909498215, 1.4751113653182983, 1.37198805809021, 0.32788383960723877, 0.06862685084342957, 0.09150247275829315]
---
header: 
  seq: 24906
  stamp: 
    secs: 1599125959
    nsecs:  47578276
  frame_id: ''
name: [shoulder_pan_joint, shoulder_lift_joint, elbow_joint, wrist_1_joint, wrist_2_joint,
  wrist_3_joint]
position: [0.030824176967144012, -1.592614475880758, -2.295258347188131, -1.0232155958758753, 1.615858554840088, -0.01523763338197881]
velocity: [0.0, 0.0, -0.010763431899249554, 0.0, 0.0, 0.0]
effort: [0.07173793762922287, 1.4840785264968872, 1.7575794458389282, 0.3187336027622223, 0.0366009883582592, 0.08082718402147293]
---
header: 
  seq: 24907
  stamp: 
    secs: 1599125959
    nsecs:  55665109
  frame_id: ''
name: [shoulder_pan_joint, shoulder_lift_joint, elbow_joint, wrist_1_joint, wrist_2_joint,
  wrist_3_joint]
position: [0.03074028715491295, -1.5925901571856897, -2.2952702681170862, -1.0232394377337855, 1.6158345937728882, -0.01523763338197881]
velocity: [0.0, 0.0, 0.010763431899249554, 0.0, 0.0, 0.0]
effort: [0.07622155547142029, 1.4751113653182983, 1.1747087240219116, 0.32483378052711487, 0.0564265251159668, 0.08082718402147293]
---
header: 
  seq: 24908
  stamp: 
    secs: 1599125959
    nsecs:  63581332
  frame_id: ''
name: [shoulder_pan_joint, shoulder_lift_joint, elbow_joint, wrist_1_joint, wrist_2_joint,
  wrist_3_joint]
position: [0.0307522714138031, -1.592614475880758, -2.2952824274646204, -1.0232036749469202, 1.6157866716384888, -0.015249554310933888]
velocity: [0.0, 0.0, -0.008372978307306767, 0.0, 0.0, 0.0]
effort: [0.08743061125278473, 1.4571768045425415, 1.9279570579528809, 0.3126334547996521, 0.050326358526945114, 0.08387726545333862]
---
header: 
  seq: 24909
  stamp: 
    secs: 1599125959
    nsecs:  71678738
  frame_id: ''
name: [shoulder_pan_joint, shoulder_lift_joint, elbow_joint, wrist_1_joint, wrist_2_joint,
  wrist_3_joint]
position: [0.030788224190473557, -1.5926268736468714, -2.2952702681170862, -1.0231917540179651, 1.615858554840088, -0.01517802873720342]
velocity: [0.0, 0.0, 0.006059224251657724, 0.0, 0.0, 0.0]
effort: [0.06949612498283386, 1.468385934829712, 1.0648599863052368, 0.3095833659172058, 0.05490148067474365, 0.08540230989456177]
---
header: 
  seq: 24910
  stamp: 
    secs: 1599125959
    nsecs:  79489118
  frame_id: ''
name: [shoulder_pan_joint, shoulder_lift_joint, elbow_joint, wrist_1_joint, wrist_2_joint,
  wrist_3_joint]
position: [0.03080020844936371, -1.5925901571856897, -2.2952824274646204, -1.0232394377337855, 1.615858554840088, -0.01517802873720342]
velocity: [0.0, 0.0, -0.005420065484941006, 0.0, 0.0, 0.0]
effort: [0.107606902718544, 1.454935073852539, 1.8965717554092407, 0.33093392848968506, 0.053376439958810806, 0.06710181385278702]
---
header: 
  seq: 24911
  stamp: 
    secs: 1599125959
    nsecs:  87621560
  frame_id: ''
name: [shoulder_pan_joint, shoulder_lift_joint, elbow_joint, wrist_1_joint, wrist_2_joint,
  wrist_3_joint]
position: [0.030776239931583405, -1.5925782362567347, -2.29533034959902, -1.0232275168048304, 1.6158705949783325, -0.015201870595113576]
velocity: [0.0, 0.0, 0.0065833344124257565, 0.0, 0.0, 0.0]
effort: [0.07622155547142029, 1.463902235031128, 1.0491673946380615, 0.3294088840484619, 0.04422619566321373, 0.08692734688520432]
---
header: 
  seq: 24912
  stamp: 
    secs: 1599125959
    nsecs:  95621309
  frame_id: ''
name: [shoulder_pan_joint, shoulder_lift_joint, elbow_joint, wrist_1_joint, wrist_2_joint,
  wrist_3_joint]
position: [0.0307522714138031, -1.592602554951803, -2.2953062693225306, -1.0232275168048304, 1.6158465147018433, -0.01517802873720342]
velocity: [0.0, 0.0, -0.005790777504444122, 0.0, 0.0, 0.0]
effort: [0.06949612498283386, 1.46614408493042, 1.869670033454895, 0.3294088840484619, 0.05795156583189964, 0.08845239132642746]
---
header: 
  seq: 24913
  stamp: 
    secs: 1599125959
    nsecs: 103614153
  frame_id: ''
name: [shoulder_pan_joint, shoulder_lift_joint, elbow_joint, wrist_1_joint, wrist_2_joint,
  wrist_3_joint]
position: [0.030776239931583405, -1.592602554951803, -2.2952824274646204, -1.0232275168048304, 1.615858554840088, -0.015213791524068654]
velocity: [0.0, 0.0, -0.013473465107381344, 0.0, 0.0, 0.0]
effort: [0.06725431978702545, 1.463902235031128, 1.181434154510498, 0.33398401737213135, 0.050326358526945114, 0.06557676941156387]
---
header: 
  seq: 24914
  stamp: 
    secs: 1599125959
    nsecs: 111569089
  frame_id: ''
name: [shoulder_pan_joint, shoulder_lift_joint, elbow_joint, wrist_1_joint, wrist_2_joint,
  wrist_3_joint]
position: [0.030788224190473557, -1.5925782362567347, -2.295234266911642, -1.0231793562518519, 1.6158106327056885, -0.015165630971090138]
velocity: [0.0, 0.0, 0.012719257734715939, 0.0, 0.0, 0.0]
effort: [0.07622155547142029, 1.4773530960083008, 1.6948087215423584, 0.3187336027622223, 0.04727627709507942, 0.0732019767165184]
---
header: 
  seq: 24915
  stamp: 
    secs: 1599125959
    nsecs: 119714678
  frame_id: ''
name: [shoulder_pan_joint, shoulder_lift_joint, elbow_joint, wrist_1_joint, wrist_2_joint,
  wrist_3_joint]
position: [0.03081219270825386, -1.5926268736468714, -2.2952824274646204, -1.0232036749469202, 1.6158705949783325, -0.015225712453023732]
velocity: [0.0, 0.0, -0.012923788279294968, 0.0, 0.0, 0.0]
effort: [0.049319833517074585, 1.4482096433639526, 1.3764716386795044, 0.3294088840484619, 0.06252668797969818, 0.0564265251159668]
---
header: 
  seq: 24916
  stamp: 
    secs: 1599125959
    nsecs: 127630012
  frame_id: ''
name: [shoulder_pan_joint, shoulder_lift_joint, elbow_joint, wrist_1_joint, wrist_2_joint,
  wrist_3_joint]
position: [0.030788224190473557, -1.5926507155047815, -2.2952824274646204, -1.0232394377337855, 1.6158345937728882, -0.015213791524068654]
velocity: [0.0, 0.0, 0.014291588217020035, 0.0, 0.0, 0.0]
effort: [0.0784633681178093, 1.4571768045425415, 1.4571768045425415, 0.3233087360858917, 0.07015189528465271, 0.07472702115774155]
---
header: 
  seq: 24917
  stamp: 
    secs: 1599125959
    nsecs: 135576823
  frame_id: ''
name: [shoulder_pan_joint, shoulder_lift_joint, elbow_joint, wrist_1_joint, wrist_2_joint,
  wrist_3_joint]
position: [0.030728302896022797, -1.592614475880758, -2.2952943483935755, -1.0231917540179651, 1.6158705949783325, -0.015201870595113576]
velocity: [0.0, 0.0, -0.012565859593451023, 0.0, 0.0, 0.0]
effort: [0.06725431978702545, 1.4594186544418335, 1.6701488494873047, 0.3355090618133545, 0.0564265251159668, 0.06710181385278702]
---
header: 
  seq: 24918
  stamp: 
    secs: 1599125959
    nsecs: 143521744
  frame_id: ''
name: [shoulder_pan_joint, shoulder_lift_joint, elbow_joint, wrist_1_joint, wrist_2_joint,
  wrist_3_joint]
position: [0.03080020844936371, -1.5925901571856897, -2.2952943483935755, -1.023167912160055, 1.6158345937728882, -0.015201870595113576]
velocity: [0.0, 0.0, 0.010763431899249554, 0.0, 0.0, 0.0]
effort: [0.08518879860639572, 1.463902235031128, 1.194885015487671, 0.32788383960723877, 0.07015189528465271, 0.06862685084342957]
---
header: 
  seq: 24919
  stamp: 
    secs: 1599125959
    nsecs: 151685769
  frame_id: ''
name: [shoulder_pan_joint, shoulder_lift_joint, elbow_joint, wrist_1_joint, wrist_2_joint,
  wrist_3_joint]
position: [0.030776239931583405, -1.5925782362567347, -2.2952702681170862, -1.0231917540179651, 1.615762710571289, -0.015189949666158498]
velocity: [0.0, 0.0, -0.008372978307306767, 0.0, 0.0, 0.0]
effort: [0.08518879860639572, 1.46614408493042, 1.8876044750213623, 0.33093392848968506, 0.0366009883582592, 0.0762520581483841]
---
header: 
  seq: 24920
  stamp: 
    secs: 1599125959
    nsecs: 159544199
  frame_id: ''
name: [shoulder_pan_joint, shoulder_lift_joint, elbow_joint, wrist_1_joint, wrist_2_joint,
  wrist_3_joint]
position: [0.03081219270825386, -1.592614475880758, -2.2953062693225306, -1.0232275168048304, 1.6158225536346436, -0.01517802873720342]
velocity: [0.0, 0.0, 0.006033658050000668, 0.0, 0.0, 0.0]
effort: [0.08967242389917374, 1.4482096433639526, 1.055892825126648, 0.3217836916446686, 0.04880131781101227, 0.08997742831707001]
---
header: 
  seq: 24921
  stamp: 
    secs: 1599125959
    nsecs: 167553707
  frame_id: ''
name: [shoulder_pan_joint, shoulder_lift_joint, elbow_joint, wrist_1_joint, wrist_2_joint,
  wrist_3_joint]
position: [0.030776239931583405, -1.5925901571856897, -2.2952702681170862, -1.023167912160055, 1.6158465147018433, -0.015189949666158498]
velocity: [0.0, 0.0, -0.006199839059263468, 0.0, 0.0, 0.0]
effort: [0.06949612498283386, 1.4751113653182983, 1.8876044750213623, 0.315683513879776, 0.05947660654783249, 0.09455255419015884]
---
header: 
  seq: 24922
  stamp: 
    secs: 1599125959
    nsecs: 175545072
  frame_id: ''
name: [shoulder_pan_joint, shoulder_lift_joint, elbow_joint, wrist_1_joint, wrist_2_joint,
  wrist_3_joint]
position: [0.030776239931583405, -1.5926387945758265, -2.2952824274646204, -1.0232275168048304, 1.6158825159072876, -0.01523763338197881]
velocity: [0.0, 0.0, 0.0062765381298959255, 0.0, 0.0, 0.0]
effort: [0.06725431978702545, 1.4751113653182983, 1.0738272666931152, 0.3355090618133545, 0.04422619566321373, 0.07777710258960724]
---
header: 
  seq: 24923
  stamp: 
    secs: 1599125959
    nsecs: 183567262
  frame_id: ''
name: [shoulder_pan_joint, shoulder_lift_joint, elbow_joint, wrist_1_joint, wrist_2_joint,
  wrist_3_joint]
position: [0.030824176967144012, -1.5925901571856897, -2.295234266911642, -1.0231793562518519, 1.6158106327056885, -0.015213791524068654]
velocity: [0.0, 0.0, -0.005547897424548864, 0.0, 0.0, 0.0]
effort: [0.07397975027561188, 1.4594186544418335, 1.8898463249206543, 0.33093392848968506, 0.06405173242092133, 0.07015189528465271]
---
header: 
  seq: 24924
  stamp: 
    secs: 1599125959
    nsecs: 191473608
  frame_id: ''
name: [shoulder_pan_joint, shoulder_lift_joint, elbow_joint, wrist_1_joint, wrist_2_joint,
  wrist_3_joint]
position: [0.030764255672693253, -1.5925901571856897, -2.2952824274646204, -1.0232394377337855, 1.6158945560455322, -0.015249554310933888]
velocity: [0.0, 0.0, -0.013435115106403828, 0.0, 0.0, 0.0]
effort: [0.06949612498283386, 1.4616605043411255, 1.087278127670288, 0.32788383960723877, 0.042701154947280884, 0.0762520581483841]
---
header: 
  seq: 24925
  stamp: 
    secs: 1599125959
    nsecs: 199536956
  frame_id: ''
name: [shoulder_pan_joint, shoulder_lift_joint, elbow_joint, wrist_1_joint, wrist_2_joint,
  wrist_3_joint]
position: [0.030764255672693253, -1.592614475880758, -2.2953181902514856, -1.0232036749469202, 1.6158225536346436, -0.015201870595113576]
velocity: [0.0, 0.0, 0.015186410397291183, 0.0, 0.0, 0.0]
effort: [0.05828707292675972, 1.4773530960083008, 1.8562191724777222, 0.315683513879776, 0.050326358526945114, 0.0732019767165184]
---
header: 
  seq: 24926
  stamp: 
    secs: 1599125959
    nsecs: 207644898
  frame_id: ''
name: [shoulder_pan_joint, shoulder_lift_joint, elbow_joint, wrist_1_joint, wrist_2_joint,
  wrist_3_joint]
position: [0.030776239931583405, -1.5925901571856897, -2.295258347188131, -1.0232275168048304, 1.6158945560455322, -0.015189949666158498]
velocity: [0.0, 0.0, -0.014764565043151379, 0.0, 0.0, 0.0]
effort: [0.06725431978702545, 1.468385934829712, 1.2823156118392944, 0.3400841951370239, 0.05185139924287796, 0.08692734688520432]
---
header: 
  seq: 24927
  stamp: 
    secs: 1599125959
    nsecs: 215612088
  frame_id: ''
name: [shoulder_pan_joint, shoulder_lift_joint, elbow_joint, wrist_1_joint, wrist_2_joint,
  wrist_3_joint]
position: [0.03080020844936371, -1.592614475880758, -2.295258347188131, -1.0231793562518519, 1.6158825159072876, -0.015213791524068654]
velocity: [0.0, 0.0, 0.014023141004145145, 0.0, 0.0, 0.0]
effort: [0.0784633681178093, 1.450451374053955, 1.5804764032363892, 0.3400841951370239, 0.05947660654783249, 0.08082718402147293]
---
header: 
  seq: 24928
  stamp: 
    secs: 1599125959
    nsecs: 223614893
  frame_id: ''
name: [shoulder_pan_joint, shoulder_lift_joint, elbow_joint, wrist_1_joint, wrist_2_joint,
  wrist_3_joint]
position: [0.030776239931583405, -1.592614475880758, -2.2952824274646204, -1.0232518354998987, 1.615858554840088, -0.01523763338197881]
velocity: [0.0, 0.0, -0.013677995651960373, 0.0, 0.0, 0.0]
effort: [0.06052888557314873, 1.454935073852539, 1.549091100692749, 0.32025864720344543, 0.03965106979012489, 0.0762520581483841]
---
header: 
  seq: 24929
  stamp: 
    secs: 1599125959
    nsecs: 231566569
  frame_id: ''
name: [shoulder_pan_joint, shoulder_lift_joint, elbow_joint, wrist_1_joint, wrist_2_joint,
  wrist_3_joint]
position: [0.0307522714138031, -1.5925663153277796, -2.295246426259176, -1.0231917540179651, 1.6159064769744873, -0.01523763338197881]
velocity: [0.0, 0.0, 0.012565859593451023, 0.0, 0.0, 0.0]
effort: [0.0784633681178093, 1.463902235031128, 1.3114591836929321, 0.3294088840484619, 0.03355090692639351, 0.08692734688520432]
---
header: 
  seq: 24930
  stamp: 
    secs: 1599125959
    nsecs: 239447559
  frame_id: ''
name: [shoulder_pan_joint, shoulder_lift_joint, elbow_joint, wrist_1_joint, wrist_2_joint,
  wrist_3_joint]
position: [0.03081219270825386, -1.5925901571856897, -2.2952702681170862, -1.0232036749469202, 1.6158106327056885, -0.01523763338197881]
velocity: [0.0, 0.0, -0.00942119862884283, 0.0, 0.0, 0.0]
effort: [0.09191422909498215, 1.468385934829712, 1.8539773225784302, 0.31415846943855286, 0.050326358526945114, 0.07472702115774155]
---
header: 
  seq: 24931
  stamp: 
    secs: 1599125959
    nsecs: 247525307
  frame_id: ''
name: [shoulder_pan_joint, shoulder_lift_joint, elbow_joint, wrist_1_joint, wrist_2_joint,
  wrist_3_joint]
